[
  {
    "id": "c_0",
    "label": "Tehran",
    "lat": 35.7,
    "lng": 51.4167,
    "p": "Tehran",
    "population": 13633000
  },
  {
    "id": "c_1",
    "label": "Mashhad",
    "lat": 36.3069,
    "lng": 59.6042,
    "p": "Khorasan-e Razavi",
    "population": 3001184
  },
  {
    "id": "c_2",
    "label": "Esfahan",
    "lat": 32.6447,
    "lng": 51.6675,
    "p": "Esfahan",
    "population": 1756126
  },
  {
    "id": "c_3",
    "label": "Karaj",
    "lat": 35.8327,
    "lng": 50.9915,
    "p": "Alborz",
    "population": 1592492
  },
  {
    "id": "c_4",
    "label": "Tabriz",
    "lat": 38.0833,
    "lng": 46.2833,
    "p": "Azarbayjan-e Sharqi",
    "population": 1558693
  },
  {
    "id": "c_5",
    "label": "Shiraz",
    "lat": 29.61,
    "lng": 52.5425,
    "p": "Fars",
    "population": 1460665
  },
  {
    "id": "c_6",
    "label": "Qom",
    "lat": 34.6461,
    "lng": 50.8789,
    "p": "Qom",
    "population": 1201158
  },
  {
    "id": "c_7",
    "label": "Ahvaz",
    "lat": 31.3203,
    "lng": 48.6692,
    "p": "Khuzestan",
    "population": 1184788
  },
  {
    "id": "c_8",
    "label": "Kermanshah",
    "lat": 34.3167,
    "lng": 47.0686,
    "p": "Kermanshah",
    "population": 851405
  },
  {
    "id": "c_9",
    "label": "Orumiyeh",
    "lat": 37.5486,
    "lng": 45.0675,
    "p": "Azarbayjan-e Gharbi",
    "population": 736224
  },
  {
    "id": "c_10",
    "label": "Rasht",
    "lat": 37.2833,
    "lng": 49.6,
    "p": "Gilan",
    "population": 639951
  },
  {
    "id": "c_11",
    "label": "Kerman",
    "lat": 30.2833,
    "lng": 57.0667,
    "p": "Kerman",
    "population": 573449
  },
  {
    "id": "c_12",
    "label": "Zahedan",
    "lat": 29.4833,
    "lng": 60.8667,
    "p": "Sistan va Baluchestan",
    "population": 560725
  },
  {
    "id": "c_13",
    "label": "Eslamshahr",
    "lat": 35.5333,
    "lng": 51.2,
    "p": "Tehran",
    "population": 548620
  },
  {
    "id": "c_14",
    "label": "Hamadan",
    "lat": 34.8065,
    "lng": 48.5162,
    "p": "Hamadan",
    "population": 528256
  },
  {
    "id": "c_15",
    "label": "Yazd",
    "lat": 31.8972,
    "lng": 54.3678,
    "p": "Yazd",
    "population": 486152
  },
  {
    "id": "c_16",
    "label": "Arak",
    "lat": 34.08,
    "lng": 49.7,
    "p": "Markazi",
    "population": 484212
  },
  {
    "id": "c_17",
    "label": "Ardabil",
    "lat": 38.25,
    "lng": 48.3,
    "p": "Ardabil",
    "population": 482632
  },
  {
    "id": "c_18",
    "label": "Bandar ‘Abbas",
    "lat": 27.2,
    "lng": 56.25,
    "p": "Hormozgan",
    "population": 435751
  },
  {
    "id": "c_19",
    "label": "Zanjan",
    "lat": 36.6667,
    "lng": 48.4833,
    "p": "Zanjan",
    "population": 433475
  },
  {
    "id": "c_20",
    "label": "Kashan",
    "lat": 33.9833,
    "lng": 51.4333,
    "p": "Esfahan",
    "population": 432557
  },
  {
    "id": "c_21",
    "label": "Qazvin",
    "lat": 36.2688,
    "lng": 50.0041,
    "p": "Qazvin",
    "population": 381598
  },
  {
    "id": "c_22",
    "label": "Sanandaj",
    "lat": 35.3097,
    "lng": 46.9989,
    "p": "Kordestan",
    "population": 373987
  },
  {
    "id": "c_23",
    "label": "Madan",
    "lat": 30.3307,
    "lng": 48.2797,
    "p": "Khuzestan",
    "population": 370180
  },
  {
    "id": "c_24",
    "label": "Khorramabad",
    "lat": 33.4667,
    "lng": 48.35,
    "p": "Lorestan",
    "population": 348216
  },
  {
    "id": "c_25",
    "label": "Gorgan",
    "lat": 36.83,
    "lng": 54.48,
    "p": "Golestan",
    "population": 312223
  },
  {
    "id": "c_26",
    "label": "Shahriar",
    "lat": 35.6597,
    "lng": 51.0592,
    "p": "Tehran",
    "population": 309607
  },
  {
    "id": "c_27",
    "label": "Shahr-e Qods",
    "lat": 35.7214,
    "lng": 51.1089,
    "p": "Tehran",
    "population": 309605
  },
  {
    "id": "c_28",
    "label": "Malard",
    "lat": 35.6658,
    "lng": 50.9767,
    "p": "Tehran",
    "population": 281027
  },
  {
    "id": "c_29",
    "label": "Sarta",
    "lat": 36.5504,
    "lng": 53.1,
    "p": "Mazandaran",
    "population": 271467
  },
  {
    "id": "c_30",
    "label": "Dezful",
    "lat": 32.3878,
    "lng": 48.4033,
    "p": "Khuzestan",
    "population": 264709
  },
  {
    "id": "c_31",
    "label": "Babol",
    "lat": 36.55,
    "lng": 52.6833,
    "p": "Mazandaran",
    "population": 250217
  },
  {
    "id": "c_32",
    "label": "Bukan",
    "lat": 36.5208,
    "lng": 46.2117,
    "p": "Azarbayjan-e Gharbi",
    "population": 248900
  },
  {
    "id": "c_33",
    "label": "Sabzevar",
    "lat": 36.2167,
    "lng": 57.6667,
    "p": "Khorasan-e Razavi",
    "population": 243700
  },
  {
    "id": "c_34",
    "label": "amol",
    "lat": 36.4669,
    "lng": 52.3569,
    "p": "Mazandaran",
    "population": 237528
  },
  {
    "id": "c_35",
    "label": "Pakdasht",
    "lat": 35.4817,
    "lng": 51.6803,
    "p": "Tehran",
    "population": 236319
  },
  {
    "id": "c_36",
    "label": "Najafabad",
    "lat": 32.6342,
    "lng": 51.3667,
    "p": "Esfahan",
    "population": 235281
  },
  {
    "id": "c_37",
    "label": "Borujerd",
    "lat": 33.8972,
    "lng": 48.7514,
    "p": "Lorestan",
    "population": 234997
  },
  {
    "id": "c_38",
    "label": "Qarchak",
    "lat": 35.4394,
    "lng": 51.5689,
    "p": "Tehran",
    "population": 231075
  },
  {
    "id": "c_39",
    "label": "Varamin",
    "lat": 35.2714,
    "lng": 51.6511,
    "p": "Tehran",
    "population": 225628
  },
  {
    "id": "c_40",
    "label": "Neyshabur",
    "lat": 36.22,
    "lng": 58.82,
    "p": "Khorasan-e Razavi",
    "population": 221700
  },
  {
    "id": "c_41",
    "label": "Saveh",
    "lat": 35.0211,
    "lng": 50.3564,
    "p": "Markazi",
    "population": 220762
  },
  {
    "id": "c_42",
    "label": "Khomeyni Shahr",
    "lat": 32.7,
    "lng": 51.5211,
    "p": "Esfahan",
    "population": 218737
  },
  {
    "id": "c_43",
    "label": "Qa’em Shahr",
    "lat": 36.4611,
    "lng": 52.8606,
    "p": "Mazandaran",
    "population": 204953
  },
  {
    "id": "c_44",
    "label": "Nasim Shahr",
    "lat": 35.5644,
    "lng": 51.1647,
    "p": "Tehran",
    "population": 200393
  },
  {
    "id": "c_45",
    "label": "Bojnurd",
    "lat": 37.4667,
    "lng": 57.3333,
    "p": "Khorasan-e Shomali",
    "population": 199791
  },
  {
    "id": "c_46",
    "label": "Bandar-e Bushehr",
    "lat": 28.9667,
    "lng": 50.8333,
    "p": "Bushehr",
    "population": 195222
  },
  {
    "id": "c_47",
    "label": "Semnan",
    "lat": 35.5833,
    "lng": 53.3833,
    "p": "Semnan",
    "population": 185129
  },
  {
    "id": "c_48",
    "label": "Khowy",
    "lat": 38.5503,
    "lng": 44.9519,
    "p": "Azarbayjan-e Gharbi",
    "population": 182000
  },
  {
    "id": "c_49",
    "label": "Fardis",
    "lat": 35.7247,
    "lng": 50.9883,
    "p": "Tehran",
    "population": 181174
  },
  {
    "id": "c_50",
    "label": "Birjand",
    "lat": 32.8664,
    "lng": 59.2211,
    "p": "Khorasan-e Jonubi",
    "population": 178020
  },
  {
    "id": "c_51",
    "label": "Maragheh",
    "lat": 37.3919,
    "lng": 46.2392,
    "p": "Azarbayjan-e Sharqi",
    "population": 175255
  },
  {
    "id": "c_52",
    "label": "Sirjan",
    "lat": 29.47,
    "lng": 55.73,
    "p": "Kerman",
    "population": 175000
  },
  {
    "id": "c_53",
    "label": "Shahin Shahr",
    "lat": 32.8639,
    "lng": 51.5475,
    "p": "Esfahan",
    "population": 173329
  },
  {
    "id": "c_54",
    "label": "Malayer",
    "lat": 34.2942,
    "lng": 48.82,
    "p": "Hamadan",
    "population": 170237
  },
  {
    "id": "c_55",
    "label": "Mahabad",
    "lat": 36.765,
    "lng": 45.721,
    "p": "Azarbayjan-e Gharbi",
    "population": 168393
  },
  {
    "id": "c_56",
    "label": "Saqqez",
    "lat": 36.2497,
    "lng": 46.2733,
    "p": "Kordestan",
    "population": 165258
  },
  {
    "id": "c_57",
    "label": "Bandar-e Mahshahr",
    "lat": 30.5589,
    "lng": 49.1981,
    "p": "Khuzestan",
    "population": 162797
  },
  {
    "id": "c_58",
    "label": "Rafsanjan",
    "lat": 30.4,
    "lng": 56,
    "p": "Kerman",
    "population": 161909
  },
  {
    "id": "c_59",
    "label": "Shahr-e Kord",
    "lat": 32.3256,
    "lng": 50.8644,
    "p": "Chahar Mahal va Bakhtiari",
    "population": 159775
  },
  {
    "id": "c_60",
    "label": "Golmeh",
    "lat": 33.7793,
    "lng": 46.5967,
    "p": "Ilam",
    "population": 152894
  },
  {
    "id": "c_61",
    "label": "Gonbad-e Kavus",
    "lat": 37.25,
    "lng": 55.1672,
    "p": "Golestan",
    "population": 151910
  },
  {
    "id": "c_62",
    "label": "Shahrud",
    "lat": 36.4086,
    "lng": 54.9733,
    "p": "Semnan",
    "population": 150129
  },
  {
    "id": "c_63",
    "label": "Marvdasht",
    "lat": 29.8742,
    "lng": 52.8025,
    "p": "Fars",
    "population": 148858
  },
  {
    "id": "c_64",
    "label": "Quchan",
    "lat": 37.1118,
    "lng": 58.5015,
    "p": "Khorasan-e Razavi",
    "population": 145531
  },
  {
    "id": "c_65",
    "label": "Jahrom",
    "lat": 28.5,
    "lng": 53.56,
    "p": "Fars",
    "population": 141634
  },
  {
    "id": "c_66",
    "label": "Kamalshahr",
    "lat": 35.8622,
    "lng": 50.8717,
    "p": "Alborz",
    "population": 141166
  },
  {
    "id": "c_67",
    "label": "Torbat-e Heydariyeh",
    "lat": 35.2739,
    "lng": 59.2194,
    "p": "Khorasan-e Razavi",
    "population": 140019
  },
  {
    "id": "c_68",
    "label": "Piranshahr",
    "lat": 36.6944,
    "lng": 45.1417,
    "p": "Azarbayjan-e Gharbi",
    "population": 138864
  },
  {
    "id": "c_69",
    "label": "Marivan",
    "lat": 35.5269,
    "lng": 46.1761,
    "p": "Kordestan",
    "population": 136654
  },
  {
    "id": "c_70",
    "label": "Andimeshk",
    "lat": 32.45,
    "lng": 48.35,
    "p": "Khuzestan",
    "population": 135116
  },
  {
    "id": "c_71",
    "label": "Shahreza",
    "lat": 32.0089,
    "lng": 51.8667,
    "p": "Esfahan",
    "population": 134592
  },
  {
    "id": "c_72",
    "label": "Zabol",
    "lat": 31.0308,
    "lng": 61.4972,
    "p": "Sistan va Baluchestan",
    "population": 134590
  },
  {
    "id": "c_73",
    "label": "Khorramshahr",
    "lat": 30.4333,
    "lng": 48.1833,
    "p": "Khuzestan",
    "population": 133097
  },
  {
    "id": "c_74",
    "label": "Marand",
    "lat": 38.4167,
    "lng": 45.7667,
    "p": "Azarbayjan-e Sharqi",
    "population": 130825
  },
  {
    "id": "c_75",
    "label": "Jiroft",
    "lat": 28.6781,
    "lng": 57.7406,
    "p": "Kerman",
    "population": 130429
  },
  {
    "id": "c_76",
    "label": "Salmas",
    "lat": 38.2,
    "lng": 44.7667,
    "p": "Azarbayjan-e Gharbi",
    "population": 127864
  },
  {
    "id": "c_77",
    "label": "Bam",
    "lat": 29.1083,
    "lng": 58.3583,
    "p": "Kerman",
    "population": 127396
  },
  {
    "id": "c_78",
    "label": "Behbahan",
    "lat": 30.5958,
    "lng": 50.2417,
    "p": "Khuzestan",
    "population": 122604
  },
  {
    "id": "c_79",
    "label": "Dorud",
    "lat": 33.4933,
    "lng": 49.075,
    "p": "Lorestan",
    "population": 121608
  },
  {
    "id": "c_80",
    "label": "Naz̧arabad",
    "lat": 35.9522,
    "lng": 50.6075,
    "p": "Alborz",
    "population": 119512
  },
  {
    "id": "c_81",
    "label": "Mohammad Shahr",
    "lat": 35.7631,
    "lng": 50.9172,
    "p": "Alborz",
    "population": 119418
  },
  {
    "id": "c_82",
    "label": "Fasa",
    "lat": 28.9381,
    "lng": 53.6481,
    "p": "Fars",
    "population": 110825
  },
  {
    "id": "c_83",
    "label": "Bandar-e Anzali",
    "lat": 37.4667,
    "lng": 49.4667,
    "p": "Gilan",
    "population": 110643
  },
  {
    "id": "c_84",
    "label": "Borazjan",
    "lat": 29.2667,
    "lng": 51.2158,
    "p": "Bushehr",
    "population": 110567
  },
  {
    "id": "c_85",
    "label": "Baneh",
    "lat": 35.9975,
    "lng": 45.8853,
    "p": "Kordestan",
    "population": 110218
  },
  {
    "id": "c_86",
    "label": "Yasuj",
    "lat": 30.6667,
    "lng": 51.5833,
    "p": "Kohgiluyeh va Bowyer Ahmad",
    "population": 108505
  },
  {
    "id": "c_87",
    "label": "Chabahar",
    "lat": 25.2836,
    "lng": 60.6236,
    "p": "Sistan va Baluchestan",
    "population": 106739
  },
  {
    "id": "c_88",
    "label": "Robat Karim",
    "lat": 35.4847,
    "lng": 51.0828,
    "p": "Tehran",
    "population": 105393
  },
  {
    "id": "c_89",
    "label": "Khak-e ‘Ali",
    "lat": 36.1283,
    "lng": 50.1764,
    "p": "Qazvin",
    "population": 104417
  },
  {
    "id": "c_90",
    "label": "Kashmar",
    "lat": 35.2383,
    "lng": 58.4656,
    "p": "Khorasan-e Razavi",
    "population": 102282
  },
  {
    "id": "c_91",
    "label": "Shushtar",
    "lat": 32.0436,
    "lng": 48.8569,
    "p": "Khuzestan",
    "population": 101878
  },
  {
    "id": "c_92",
    "label": "Ahar",
    "lat": 38.475,
    "lng": 47.0603,
    "p": "Azarbayjan-e Sharqi",
    "population": 100641
  },
  {
    "id": "c_93",
    "label": "Masjed Soleyman",
    "lat": 31.9333,
    "lng": 49.3,
    "p": "Khuzestan",
    "population": 100497
  },
  {
    "id": "c_94",
    "label": "Torbat-e Jam",
    "lat": 35.2439,
    "lng": 60.6225,
    "p": "Khorasan-e Razavi",
    "population": 100449
  },
  {
    "id": "c_95",
    "label": "Kazerun",
    "lat": 29.6167,
    "lng": 51.65,
    "p": "Fars",
    "population": 96683
  },
  {
    "id": "c_96",
    "label": "Khowrasgan",
    "lat": 32.6536,
    "lng": 51.755,
    "p": "Esfahan",
    "population": 86063
  },
  {
    "id": "c_97",
    "label": "Shirvan",
    "lat": 37.3967,
    "lng": 57.9294,
    "p": "Khorasan-e Shomali",
    "population": 82790
  },
  {
    "id": "c_98",
    "label": "Meybod",
    "lat": 32.25,
    "lng": 54.0167,
    "p": "Yazd",
    "population": 80712
  },
  {
    "id": "c_99",
    "label": "Bumahen",
    "lat": 35.7297,
    "lng": 51.8619,
    "p": "Tehran",
    "population": 79034
  },
  {
    "id": "c_100",
    "label": "Aligudarz",
    "lat": 33.4006,
    "lng": 49.6947,
    "p": "Lorestan",
    "population": 78690
  },
  {
    "id": "c_101",
    "label": "Bonab",
    "lat": 37.3403,
    "lng": 46.0561,
    "p": "Azarbayjan-e Sharqi",
    "population": 75332
  },
  {
    "id": "c_102",
    "label": "Takestan",
    "lat": 36.0694,
    "lng": 49.6958,
    "p": "Qazvin",
    "population": 73625
  },
  {
    "id": "c_103",
    "label": "Oshnaviyeh",
    "lat": 37.0397,
    "lng": 45.0983,
    "p": "Azarbayjan-e Gharbi",
    "population": 70030
  },
  {
    "id": "c_104",
    "label": "Bandar-e Genaveh",
    "lat": 29.5833,
    "lng": 50.5167,
    "p": "Bushehr",
    "population": 64110
  },
  {
    "id": "c_105",
    "label": "Zarand",
    "lat": 30.8128,
    "lng": 56.5639,
    "p": "Kerman",
    "population": 63744
  },
  {
    "id": "c_106",
    "label": "Mahdasht",
    "lat": 35.7283,
    "lng": 50.8133,
    "p": "Tehran",
    "population": 62910
  },
  {
    "id": "c_107",
    "label": "Mobarakeh",
    "lat": 32.3464,
    "lng": 51.5044,
    "p": "Esfahan",
    "population": 62454
  },
  {
    "id": "c_108",
    "label": "Esfarayen",
    "lat": 37.0764,
    "lng": 57.51,
    "p": "Khorasan-e Shomali",
    "population": 59490
  },
  {
    "id": "c_109",
    "label": "Damghan",
    "lat": 36.1681,
    "lng": 54.3481,
    "p": "Semnan",
    "population": 57331
  },
  {
    "id": "c_110",
    "label": "Taybad",
    "lat": 34.74,
    "lng": 60.7756,
    "p": "Khorasan-e Razavi",
    "population": 56562
  },
  {
    "id": "c_111",
    "label": "Zarrin Shahr",
    "lat": 32.3894,
    "lng": 51.3764,
    "p": "Esfahan",
    "population": 55984
  },
  {
    "id": "c_112",
    "label": "aran Bidgol",
    "lat": 34.0578,
    "lng": 51.4842,
    "p": "Esfahan",
    "population": 55651
  },
  {
    "id": "c_113",
    "label": "Hashtpar",
    "lat": 37.7992,
    "lng": 48.9053,
    "p": "Gilan",
    "population": 54178
  },
  {
    "id": "c_114",
    "label": "Bijar",
    "lat": 35.8741,
    "lng": 47.5937,
    "p": "Kordestan",
    "population": 53871
  },
  {
    "id": "c_115",
    "label": "Sardasht",
    "lat": 36.1553,
    "lng": 45.4789,
    "p": "Azarbayjan-e Gharbi",
    "population": 50000
  },
  {
    "id": "c_116",
    "label": "Ramhormoz",
    "lat": 31.2783,
    "lng": 49.6064,
    "p": "Khuzestan",
    "population": 49822
  },
  {
    "id": "c_117",
    "label": "Garmsar",
    "lat": 35.2167,
    "lng": 52.3333,
    "p": "Semnan",
    "population": 48672
  },
  {
    "id": "c_118",
    "label": "Damavand",
    "lat": 35.7178,
    "lng": 52.065,
    "p": "Tehran",
    "population": 48380
  },
  {
    "id": "c_119",
    "label": "Golpayegan",
    "lat": 33.4536,
    "lng": 50.2883,
    "p": "Esfahan",
    "population": 47849
  },
  {
    "id": "c_120",
    "label": "Azna",
    "lat": 33.4539,
    "lng": 49.455,
    "p": "Lorestan",
    "population": 47489
  },
  {
    "id": "c_121",
    "label": "Natanz",
    "lat": 33.5,
    "lng": 51.9,
    "p": "Esfahan",
    "population": 44000
  },
  {
    "id": "c_122",
    "label": "Takab",
    "lat": 36.4008,
    "lng": 47.1131,
    "p": "Azarbayjan-e Gharbi",
    "population": 43702
  },
  {
    "id": "c_123",
    "label": "Darcheh",
    "lat": 32.6153,
    "lng": 51.5556,
    "p": "Esfahan",
    "population": 43183
  },
  {
    "id": "c_124",
    "label": "Sarab",
    "lat": 37.9408,
    "lng": 47.5367,
    "p": "Azarbayjan-e Sharqi",
    "population": 42057
  },
  {
    "id": "c_125",
    "label": "Baft",
    "lat": 29.2331,
    "lng": 56.6022,
    "p": "Kerman",
    "population": 41105
  },
  {
    "id": "c_126",
    "label": "Khalkhal",
    "lat": 37.6189,
    "lng": 48.5258,
    "p": "Ardabil",
    "population": 38521
  },
  {
    "id": "c_127",
    "label": "Falavarjan",
    "lat": 32.5553,
    "lng": 51.5097,
    "p": "Esfahan",
    "population": 37740
  },
  {
    "id": "c_128",
    "label": "Kahrizak",
    "lat": 35.5175,
    "lng": 51.3597,
    "p": "Tehran",
    "population": 37527
  },
  {
    "id": "c_129",
    "label": "Sarpol-e zahab",
    "lat": 34.4614,
    "lng": 45.8647,
    "p": "Kermanshah",
    "population": 34632
  },
  {
    "id": "c_130",
    "label": "Gerash",
    "lat": 27.665,
    "lng": 54.1369,
    "p": "Fars",
    "population": 34469
  },
  {
    "id": "c_131",
    "label": "Shahin Dezh",
    "lat": 36.6792,
    "lng": 46.5667,
    "p": "Azarbayjan-e Gharbi",
    "population": 34204
  },
  {
    "id": "c_132",
    "label": "Khvaf",
    "lat": 34.5764,
    "lng": 60.1408,
    "p": "Khorasan-e Razavi",
    "population": 33189
  },
  {
    "id": "c_133",
    "label": "Qahderijan",
    "lat": 32.5767,
    "lng": 51.455,
    "p": "Esfahan",
    "population": 30002
  },
  {
    "id": "c_134",
    "label": "Evaz",
    "lat": 27.76,
    "lng": 54.0072,
    "p": "Fars",
    "population": 29987
  },
  {
    "id": "c_135",
    "label": "Bardaskan",
    "lat": 35.2631,
    "lng": 57.9722,
    "p": "Khorasan-e Razavi",
    "population": 28233
  },
  {
    "id": "c_136",
    "label": "Hadishahr",
    "lat": 38.8478,
    "lng": 45.6622,
    "p": "Azarbayjan-e Sharqi",
    "population": 27842
  },
  {
    "id": "c_137",
    "label": "Fuman",
    "lat": 37.2239,
    "lng": 49.3125,
    "p": "Gilan",
    "population": 27763
  },
  {
    "id": "c_138",
    "label": "Semirom",
    "lat": 31.4142,
    "lng": 51.5694,
    "p": "Esfahan",
    "population": 26260
  },
  {
    "id": "c_139",
    "label": "Mahdishahr",
    "lat": 35.7,
    "lng": 53.35,
    "p": "Semnan",
    "population": 24485
  },
  {
    "id": "c_140",
    "label": "Sheyban",
    "lat": 31.4086,
    "lng": 48.7942,
    "p": "Khuzestan",
    "population": 23211
  },
  {
    "id": "c_141",
    "label": "Kelishad va Sudarjan",
    "lat": 32.5542,
    "lng": 51.525,
    "p": "Esfahan",
    "population": 23203
  },
  {
    "id": "c_142",
    "label": "Goldasht",
    "lat": 32.6267,
    "lng": 51.4392,
    "p": "Esfahan",
    "population": 22693
  },
  {
    "id": "c_143",
    "label": "Khvansar",
    "lat": 33.2206,
    "lng": 50.315,
    "p": "Esfahan",
    "population": 20490
  },
  {
    "id": "c_144",
    "label": "Kabudarahang",
    "lat": 35.2083,
    "lng": 48.7239,
    "p": "Hamadan",
    "population": 19216
  },
  {
    "id": "c_145",
    "label": "Ashkezar",
    "lat": 32,
    "lng": 54.2044,
    "p": "Yazd",
    "population": 19123
  },
  {
    "id": "c_146",
    "label": "Kherameh",
    "lat": 29.5,
    "lng": 53.3164,
    "p": "Fars",
    "population": 18477
  },
  {
    "id": "c_147",
    "label": "Taft",
    "lat": 31.7475,
    "lng": 54.2042,
    "p": "Yazd",
    "population": 18464
  },
  {
    "id": "c_148",
    "label": "Feyzabad",
    "lat": 35.0144,
    "lng": 58.78,
    "p": "Khorasan-e Razavi",
    "population": 18120
  },
  {
    "id": "c_149",
    "label": "Dehaqan",
    "lat": 31.94,
    "lng": 51.6478,
    "p": "Esfahan",
    "population": 16899
  },
  {
    "id": "c_150",
    "label": "Tiran",
    "lat": 32.7025,
    "lng": 51.1536,
    "p": "Esfahan",
    "population": 15673
  },
  {
    "id": "c_151",
    "label": "Amlash",
    "lat": 37.0975,
    "lng": 50.1864,
    "p": "Gilan",
    "population": 15047
  },
  {
    "id": "c_152",
    "label": "Ardestan",
    "lat": 33.3797,
    "lng": 52.3725,
    "p": "Esfahan",
    "population": 14698
  },
  {
    "id": "c_153",
    "label": "Famenin",
    "lat": 35.1139,
    "lng": 48.9717,
    "p": "Hamadan",
    "population": 14019
  },
  {
    "id": "c_154",
    "label": "Fereydunshahr",
    "lat": 32.9411,
    "lng": 50.1211,
    "p": "Esfahan",
    "population": 13475
  },
  {
    "id": "c_155",
    "label": "Rezvanshahr",
    "lat": 37.5511,
    "lng": 49.1394,
    "p": "Gilan",
    "population": 12355
  },
  {
    "id": "c_156",
    "label": "Ahram",
    "lat": 28.8825,
    "lng": 51.2744,
    "p": "Bushehr",
    "population": 12182
  },
  {
    "id": "c_157",
    "label": "Poldasht",
    "lat": 39.3481,
    "lng": 45.0711,
    "p": "Azarbayjan-e Gharbi",
    "population": 11472
  },
  {
    "id": "c_158",
    "label": "Qasr-e Shirin",
    "lat": 34.5156,
    "lng": 45.5792,
    "p": "Kermanshah",
    "population": 11202
  },
  {
    "id": "c_159",
    "label": "Sorkheh",
    "lat": 35.4633,
    "lng": 53.2139,
    "p": "Semnan",
    "population": 9951
  },
  {
    "id": "c_160",
    "label": "Kaleybar",
    "lat": 38.8667,
    "lng": 47.0333,
    "p": "Azarbayjan-e Sharqi",
    "population": 9324
  },
  {
    "id": "c_161",
    "label": "Khondab",
    "lat": 34.3928,
    "lng": 49.1839,
    "p": "Markazi",
    "population": 7810
  },
  {
    "id": "c_162",
    "label": "Komijan",
    "lat": 34.7192,
    "lng": 49.3267,
    "p": "Markazi",
    "population": 7358
  },
  {
    "id": "c_163",
    "label": "Chadegan",
    "lat": 32.7683,
    "lng": 50.6286,
    "p": "Esfahan",
    "population": 7037
  },
  {
    "id": "c_164",
    "label": "aradan",
    "lat": 35.2497,
    "lng": 52.4933,
    "p": "Semnan",
    "population": 6257
  },
  {
    "id": "c_165",
    "label": "Khur",
    "lat": 33.775,
    "lng": 55.0831,
    "p": "Esfahan",
    "population": 6216
  },
  {
    "id": "c_166",
    "label": "Taleqan",
    "lat": 36.1779,
    "lng": 50.7655,
    "p": "Alborz",
    "population": 3281
  },
  {
    "id": "c_167",
    "label": "Chelgard",
    "lat": 32.4681,
    "lng": 50.1214,
    "p": "Chahar Mahal va Bakhtiari",
    "population": 2708
  },
  {
    "id": "c_168",
    "label": "Bahar",
    "lat": 34.9069,
    "lng": 48.4414,
    "p": "Hamadan",
    "population": 27.271
  },
  {
    "id": "c_169",
    "label": "Sari",
    "lat": 36.5633,
    "lng": 53.0601,
    "p": "Mazandaran",
    "population": 0
  },
  {
    "id": "c_170",
    "label": "ilam",
    "lat": 33.6374,
    "lng": 46.4227,
    "p": "ilam",
    "population": 0
  },
  {
    "id": "c_171",
    "label": "Eshtehard",
    "lat": 35.7256,
    "lng": 50.3661,
    "p": "Alborz",
    "population": 0
  },
  {
    "id": "c_172",
    "label": "Alvand",
    "lat": 36.1892,
    "lng": 50.0642,
    "p": "Qazvin",
    "population": 0
  },
  {
    "id": "c_173",
    "label": "Fereydun Kenar",
    "lat": 36.6861,
    "lng": 52.52,
    "p": "Mazandaran",
    "population": 0
  },
  {
    "id": "c_174",
    "label": "Lahijan",
    "lat": 37.2042,
    "lng": 50.0092,
    "p": "Gilan",
    "population": 0
  },
  {
    "id": "c_175",
    "label": "Mahmudabad",
    "lat": 36.6319,
    "lng": 52.2629,
    "p": "Mazandaran",
    "population": 0
  },
  {
    "id": "c_176",
    "label": "Babolsar",
    "lat": 36.7,
    "lng": 52.65,
    "p": "Mazandaran",
    "population": 0
  },
  {
    "id": "c_177",
    "label": "Bandar-e Torkaman",
    "lat": 36.9,
    "lng": 54.0667,
    "p": "Golestan",
    "population": 0
  },
  {
    "id": "c_178",
    "label": "Langarud",
    "lat": 37.1969,
    "lng": 50.1536,
    "p": "Gilan",
    "population": 0
  },
  {
    "id": "c_179",
    "label": "Juybar",
    "lat": 36.6409,
    "lng": 52.9121,
    "p": "Mazandaran",
    "population": 0
  },
  {
    "id": "c_180",
    "label": "astaneh-ye Ashrafiyeh",
    "lat": 37.2597,
    "lng": 49.9444,
    "p": "Gilan",
    "population": 0
  },
  {
    "id": "c_181",
    "label": "Kangan",
    "lat": 27.8339,
    "lng": 52.0628,
    "p": "Bushehr",
    "population": 0
  },
  {
    "id": "c_182",
    "label": "Bandar-e ‘Asaluyeh",
    "lat": 27.4761,
    "lng": 52.6075,
    "p": "Bushehr",
    "population": 0
  },
  {
    "id": "c_183",
    "label": "astara",
    "lat": 38.4291,
    "lng": 48.872,
    "p": "Gilan",
    "population": 0
  },
  {
    "id": "c_184",
    "label": "sowme‘eh Sara",
    "lat": 37.3117,
    "lng": 49.3219,
    "p": "Gilan",
    "population": 0
  },
  {
    "id": "c_185",
    "label": "Bandar-e Gaz",
    "lat": 36.7742,
    "lng": 53.9481,
    "p": "Golestan",
    "population": 0
  },
  {
    "id": "c_186",
    "label": "Hashtgerd",
    "lat": 35.9619,
    "lng": 50.68,
    "p": "Alborz",
    "population": 0
  },
  {
    "id": "c_187",
    "label": "Farsan",
    "lat": 32.2569,
    "lng": 50.5642,
    "p": "Chahar Mahal va Bakhtiari",
    "population": 0
  },
  {
    "id": "c_188",
    "label": "‘Ajab Shir",
    "lat": 37.4775,
    "lng": 45.8942,
    "p": "Azarbayjan-e Sharqi",
    "population": 0
  },
  {
    "id": "c_189",
    "label": "Khorramdarreh",
    "lat": 36.2031,
    "lng": 49.1869,
    "p": "Zanjan",
    "population": 0
  },
  {
    "id": "c_190",
    "label": "Pishva",
    "lat": 35.308,
    "lng": 51.7267,
    "p": "Tehran",
    "population": 0
  },
  {
    "id": "c_191",
    "label": "Rey",
    "lat": 35.5935,
    "lng": 51.44,
    "p": "Tehran",
    "population": 0
  },
  {
    "id": "c_192",
    "label": "Parsabad",
    "lat": 39.6482,
    "lng": 47.9174,
    "p": "Ardabil",
    "population": 0
  },
  {
    "id": "c_193",
    "label": "Miandoab",
    "lat": 36.9667,
    "lng": 46.1096,
    "p": "Azarbayjan-e Gharbi",
    "population": 0
  },
  {
    "id": "c_194",
    "label": "Narmashir",
    "lat": 28.9511,
    "lng": 58.6953,
    "p": "Kerman",
    "population": 0
  },
  {
    "id": "c_195",
    "label": "Masal",
    "lat": 37.3631,
    "lng": 49.1329,
    "p": "Gilan",
    "population": 0
  },
  {
    "id": "c_196",
    "label": "‘Aliabad-e Katul",
    "lat": 36.9101,
    "lng": 54.8674,
    "p": "Golestan",
    "population": 0
  },
  {
    "id": "c_197",
    "label": "Malekan",
    "lat": 37.1458,
    "lng": 46.1028,
    "p": "Azarbayjan-e Sharqi",
    "population": 0
  },
  {
    "id": "c_198",
    "label": "‘Abbasabad",
    "lat": 36.7277,
    "lng": 51.1057,
    "p": "Mazandaran",
    "population": 0
  },
  {
    "id": "c_199",
    "label": "abadan",
    "lat": 30.3392,
    "lng": 48.3043,
    "p": "Khuzestan",
    "population": 0
  },
  {
    "id": "c_200",
    "label": "Nahavand",
    "lat": 34.1883,
    "lng": 48.3769,
    "p": "Hamadan",
    "population": 0
  },
  {
    "id": "c_201",
    "label": "Naqadeh",
    "lat": 36.95,
    "lng": 45.3833,
    "p": "Azarbayjan-e Gharbi",
    "population": 0
  },
  {
    "id": "c_202",
    "label": "Behshahr",
    "lat": 36.7,
    "lng": 53.55,
    "p": "Mazandaran",
    "population": 0
  },
  {
    "id": "c_203",
    "label": "azadshahr",
    "lat": 37.0864,
    "lng": 55.1722,
    "p": "Golestan",
    "population": 0
  },
  {
    "id": "c_204",
    "label": "Javanrud",
    "lat": 34.8067,
    "lng": 46.4914,
    "p": "Kermanshah",
    "population": 0
  },
  {
    "id": "c_205",
    "label": "Ramian",
    "lat": 37.016,
    "lng": 55.1412,
    "p": "Golestan",
    "population": 0
  },
  {
    "id": "c_206",
    "label": "Zehak",
    "lat": 30.8939,
    "lng": 61.6803,
    "p": "Sistan va Baluchestan",
    "population": 0
  },
  {
    "id": "c_207",
    "label": "Rudsar",
    "lat": 37.1375,
    "lng": 50.2881,
    "p": "Gilan",
    "population": 0
  },
  {
    "id": "c_208",
    "label": "Galugah",
    "lat": 36.7272,
    "lng": 53.8089,
    "p": "Mazandaran",
    "population": 0
  },
  {
    "id": "c_209",
    "label": "Ramsar",
    "lat": 36.9169,
    "lng": 50.6736,
    "p": "Mazandaran",
    "population": 0
  },
  {
    "id": "c_210",
    "label": "Asadabad",
    "lat": 34.7822,
    "lng": 48.1183,
    "p": "Hamadan",
    "population": 0
  },
  {
    "id": "c_211",
    "label": "Shaft",
    "lat": 37.1702,
    "lng": 49.3998,
    "p": "Gilan",
    "population": 0
  },
  {
    "id": "c_212",
    "label": "Neka",
    "lat": 36.6489,
    "lng": 53.2958,
    "p": "Mazandaran",
    "population": 0
  },
  {
    "id": "c_213",
    "label": "Kord Kuy",
    "lat": 36.7931,
    "lng": 54.1121,
    "p": "Golestan",
    "population": 0
  },
  {
    "id": "c_214",
    "label": "Nowshahr",
    "lat": 36.645,
    "lng": 51.5,
    "p": "Mazandaran",
    "population": 0
  },
  {
    "id": "c_215",
    "label": "Harsin",
    "lat": 34.2722,
    "lng": 47.5861,
    "p": "Kermanshah",
    "population": 0
  },
  {
    "id": "c_216",
    "label": "Galikesh",
    "lat": 37.2719,
    "lng": 55.4325,
    "p": "Golestan",
    "population": 0
  },
  {
    "id": "c_217",
    "label": "Kavar",
    "lat": 29.205,
    "lng": 52.6897,
    "p": "Fars",
    "population": 0
  },
  {
    "id": "c_218",
    "label": "Chalus",
    "lat": 36.655,
    "lng": 51.4204,
    "p": "Mazandaran",
    "population": 0
  },
  {
    "id": "c_219",
    "label": "aq Qala",
    "lat": 37.0139,
    "lng": 54.455,
    "p": "Golestan",
    "population": 0
  },
  {
    "id": "c_220",
    "label": "Tonekabon",
    "lat": 36.8167,
    "lng": 50.8775,
    "p": "Mazandaran",
    "population": 0
  },
  {
    "id": "c_221",
    "label": "Osku",
    "lat": 37.9158,
    "lng": 46.1236,
    "p": "Azarbayjan-e Sharqi",
    "population": 0
  },
  {
    "id": "c_222",
    "label": "Qeshm",
    "lat": 26.9581,
    "lng": 56.2717,
    "p": "Hormozgan",
    "population": 0
  },
  {
    "id": "c_223",
    "label": "Eslamabad-e Gharb",
    "lat": 34.1094,
    "lng": 46.5275,
    "p": "Kermanshah",
    "population": 0
  },
  {
    "id": "c_224",
    "label": "Paveh",
    "lat": 35.0433,
    "lng": 46.3564,
    "p": "Kermanshah",
    "population": 0
  },
  {
    "id": "c_225",
    "label": "Dust Mohammad Khan",
    "lat": 31.1447,
    "lng": 61.7925,
    "p": "Sistan va Baluchestan",
    "population": 0
  },
  {
    "id": "c_226",
    "label": "Minudasht",
    "lat": 37.2289,
    "lng": 55.3747,
    "p": "Golestan",
    "population": 0
  },
  {
    "id": "c_227",
    "label": "Tuyserkan",
    "lat": 34.5481,
    "lng": 48.4467,
    "p": "Hamadan",
    "population": 0
  },
  {
    "id": "c_228",
    "label": "Mollasani",
    "lat": 31.5847,
    "lng": 48.8859,
    "p": "Khuzestan",
    "population": 0
  },
  {
    "id": "c_229",
    "label": "Namin",
    "lat": 38.4269,
    "lng": 48.4839,
    "p": "Ardabil",
    "population": 0
  },
  {
    "id": "c_230",
    "label": "abyek",
    "lat": 36.0542,
    "lng": 50.5533,
    "p": "Qazvin",
    "population": 0
  },
  {
    "id": "c_231",
    "label": "Lordegan",
    "lat": 31.5097,
    "lng": 50.8283,
    "p": "Chahar Mahal va Bakhtiari",
    "population": 0
  },
  {
    "id": "c_232",
    "label": "Abhar",
    "lat": 36.25,
    "lng": 49.3667,
    "p": "Zanjan",
    "population": 0
  },
  {
    "id": "c_233",
    "label": "Showt",
    "lat": 39.2192,
    "lng": 44.77,
    "p": "Azarbayjan-e Gharbi",
    "population": 0
  },
  {
    "id": "c_234",
    "label": "Torqabeh",
    "lat": 36.3103,
    "lng": 59.3736,
    "p": "Khorasan-e Razavi",
    "population": 0
  },
  {
    "id": "c_235",
    "label": "Dowlatabad",
    "lat": 32.7997,
    "lng": 51.6953,
    "p": "Esfahan",
    "population": 0
  },
  {
    "id": "c_236",
    "label": "Shush",
    "lat": 32.1942,
    "lng": 48.2436,
    "p": "Khuzestan",
    "population": 0
  },
  {
    "id": "c_237",
    "label": "Kuhdasht",
    "lat": 33.53,
    "lng": 47.6,
    "p": "Lorestan",
    "population": 0
  },
  {
    "id": "c_238",
    "label": "Eyvan",
    "lat": 33.8272,
    "lng": 46.3097,
    "p": "ilam",
    "population": 0
  },
  {
    "id": "c_239",
    "label": "Nurabad",
    "lat": 34.0734,
    "lng": 47.9725,
    "p": "Lorestan",
    "population": 0
  },
  {
    "id": "c_240",
    "label": "azarshahr",
    "lat": 37.759,
    "lng": 45.9783,
    "p": "Azarbayjan-e Sharqi",
    "population": 0
  },
  {
    "id": "c_241",
    "label": "sahneh",
    "lat": 34.4814,
    "lng": 47.6908,
    "p": "Kermanshah",
    "population": 0
  },
  {
    "id": "c_242",
    "label": "Kamyaran",
    "lat": 34.7956,
    "lng": 46.9355,
    "p": "Kordestan",
    "population": 0
  },
  {
    "id": "c_243",
    "label": "Shahrak-e Bakharz",
    "lat": 34.992,
    "lng": 60.3171,
    "p": "Khorasan-e Razavi",
    "population": 0
  },
  {
    "id": "c_244",
    "label": "Bagh-e Malek",
    "lat": 31.5236,
    "lng": 49.8894,
    "p": "Khuzestan",
    "population": 0
  },
  {
    "id": "c_245",
    "label": "Siahkal",
    "lat": 37.1528,
    "lng": 49.8708,
    "p": "Gilan",
    "population": 0
  },
  {
    "id": "c_246",
    "label": "Shabestar",
    "lat": 38.1803,
    "lng": 45.7028,
    "p": "Azarbayjan-e Sharqi",
    "population": 0
  },
  {
    "id": "c_247",
    "label": "Borujen",
    "lat": 31.9683,
    "lng": 51.2894,
    "p": "Chahar Mahal va Bakhtiari",
    "population": 0
  },
  {
    "id": "c_248",
    "label": "Kahnuj",
    "lat": 27.9519,
    "lng": 57.6996,
    "p": "Kerman",
    "population": 0
  },
  {
    "id": "c_249",
    "label": "Jam",
    "lat": 27.8278,
    "lng": 52.3267,
    "p": "Bushehr",
    "population": 0
  },
  {
    "id": "c_250",
    "label": "Shadegan",
    "lat": 30.6497,
    "lng": 48.6647,
    "p": "Khuzestan",
    "population": 0
  },
  {
    "id": "c_251",
    "label": "Aleshtar",
    "lat": 33.8631,
    "lng": 48.2617,
    "p": "Lorestan",
    "population": 0
  },
  {
    "id": "c_252",
    "label": "Razan",
    "lat": 35.3864,
    "lng": 49.0336,
    "p": "Hamadan",
    "population": 0
  },
  {
    "id": "c_253",
    "label": "Masiri",
    "lat": 30.2458,
    "lng": 51.5223,
    "p": "Fars",
    "population": 0
  },
  {
    "id": "c_254",
    "label": "Sareyn",
    "lat": 38.1514,
    "lng": 48.0708,
    "p": "Ardabil",
    "population": 0
  },
  {
    "id": "c_255",
    "label": "Kalaleh",
    "lat": 37.3808,
    "lng": 55.4917,
    "p": "Golestan",
    "population": 0
  },
  {
    "id": "c_256",
    "label": "Qarah zia’ od Din",
    "lat": 38.8914,
    "lng": 45.0253,
    "p": "Azarbayjan-e Gharbi",
    "population": 0
  },
  {
    "id": "c_257",
    "label": "Shazand",
    "lat": 33.9275,
    "lng": 49.4114,
    "p": "Markazi",
    "population": 0
  },
  {
    "id": "c_258",
    "label": "Sarvabad",
    "lat": 35.3125,
    "lng": 46.3667,
    "p": "Kordestan",
    "population": 0
  },
  {
    "id": "c_259",
    "label": "Khomeyn",
    "lat": 33.6422,
    "lng": 50.0789,
    "p": "Markazi",
    "population": 0
  },
  {
    "id": "c_260",
    "label": "Minab",
    "lat": 27.131,
    "lng": 57.0872,
    "p": "Hormozgan",
    "population": 0
  },
  {
    "id": "c_261",
    "label": "Darreh Shahr",
    "lat": 33.1397,
    "lng": 47.3761,
    "p": "ilam",
    "population": 0
  },
  {
    "id": "c_262",
    "label": "Chenaran",
    "lat": 36.6456,
    "lng": 59.1211,
    "p": "Khorasan-e Razavi",
    "population": 0
  },
  {
    "id": "c_263",
    "label": "Nur",
    "lat": 36.5717,
    "lng": 52.0153,
    "p": "Mazandaran",
    "population": 0
  },
  {
    "id": "c_264",
    "label": "Susangerd",
    "lat": 31.5608,
    "lng": 48.1831,
    "p": "Khuzestan",
    "population": 0
  },
  {
    "id": "c_265",
    "label": "Rudan",
    "lat": 27.4419,
    "lng": 57.192,
    "p": "Hormozgan",
    "population": 0
  },
  {
    "id": "c_266",
    "label": "Gomishan",
    "lat": 37.0717,
    "lng": 54.0767,
    "p": "Golestan",
    "population": 0
  },
  {
    "id": "c_267",
    "label": "Omidiyeh",
    "lat": 30.7597,
    "lng": 49.705,
    "p": "Khuzestan",
    "population": 0
  },
  {
    "id": "c_268",
    "label": "Tajrish",
    "lat": 35.8044,
    "lng": 51.4256,
    "p": "Tehran",
    "population": 0
  },
  {
    "id": "c_269",
    "label": "Shalamzar",
    "lat": 32.0439,
    "lng": 50.8139,
    "p": "Chahar Mahal va Bakhtiari",
    "population": 0
  },
  {
    "id": "c_270",
    "label": "Dehdasht",
    "lat": 30.7936,
    "lng": 50.565,
    "p": "Kohgiluyeh va Bowyer Ahmad",
    "population": 0
  },
  {
    "id": "c_271",
    "label": "Germi",
    "lat": 39.0214,
    "lng": 48.08,
    "p": "Ardabil",
    "population": 0
  },
  {
    "id": "c_272",
    "label": "Pa’in-e Bazar-e Rudbar",
    "lat": 36.8211,
    "lng": 49.4264,
    "p": "Gilan",
    "population": 0
  },
  {
    "id": "c_273",
    "label": "Ravansar",
    "lat": 34.7153,
    "lng": 46.6533,
    "p": "Kermanshah",
    "population": 0
  },
  {
    "id": "c_274",
    "label": "Daran",
    "lat": 32.9874,
    "lng": 50.4108,
    "p": "Esfahan",
    "population": 0
  },
  {
    "id": "c_275",
    "label": "Meshgin Shahr",
    "lat": 38.3989,
    "lng": 47.6819,
    "p": "Ardabil",
    "population": 0
  },
  {
    "id": "c_276",
    "label": "Sonqor",
    "lat": 34.7836,
    "lng": 47.6003,
    "p": "Kermanshah",
    "population": 0
  },
  {
    "id": "c_277",
    "label": "Bileh Savar",
    "lat": 39.3796,
    "lng": 48.3546,
    "p": "Ardabil",
    "population": 0
  },
  {
    "id": "c_278",
    "label": "Mohr",
    "lat": 27.555,
    "lng": 52.8833,
    "p": "Fars",
    "population": 0
  },
  {
    "id": "c_279",
    "label": "Jolfa",
    "lat": 38.9353,
    "lng": 45.6431,
    "p": "Azarbayjan-e Sharqi",
    "population": 0
  },
  {
    "id": "c_280",
    "label": "Qorveh",
    "lat": 35.1664,
    "lng": 47.8044,
    "p": "Kordestan",
    "population": 0
  },
  {
    "id": "c_281",
    "label": "Estahban",
    "lat": 29.1264,
    "lng": 54.0419,
    "p": "Fars",
    "population": 0
  },
  {
    "id": "c_282",
    "label": "Dehgolan",
    "lat": 35.2778,
    "lng": 47.4183,
    "p": "Kordestan",
    "population": 0
  },
  {
    "id": "c_283",
    "label": "Do Gonbadan",
    "lat": 30.3586,
    "lng": 50.7981,
    "p": "Kohgiluyeh va Bowyer Ahmad",
    "population": 0
  },
  {
    "id": "c_284",
    "label": "Firuzabad",
    "lat": 28.8438,
    "lng": 52.5707,
    "p": "Fars",
    "population": 0
  },
  {
    "id": "c_285",
    "label": "Bostanabad",
    "lat": 37.8463,
    "lng": 46.8354,
    "p": "Azarbayjan-e Sharqi",
    "population": 0
  },
  {
    "id": "c_286",
    "label": "Neqab",
    "lat": 36.7081,
    "lng": 57.4214,
    "p": "Khorasan-e Razavi",
    "population": 0
  },
  {
    "id": "c_287",
    "label": "Faruj",
    "lat": 37.2312,
    "lng": 58.219,
    "p": "Khorasan-e Shomali",
    "population": 0
  },
  {
    "id": "c_288",
    "label": "Khalilabad",
    "lat": 35.254,
    "lng": 58.2857,
    "p": "Khorasan-e Razavi",
    "population": 0
  },
  {
    "id": "c_289",
    "label": "Mianeh",
    "lat": 37.4167,
    "lng": 47.7,
    "p": "Azarbayjan-e Sharqi",
    "population": 0
  },
  {
    "id": "c_290",
    "label": "Sarableh",
    "lat": 33.7667,
    "lng": 46.5664,
    "p": "ilam",
    "population": 0
  },
  {
    "id": "c_291",
    "label": "Sisakht",
    "lat": 30.8639,
    "lng": 51.4558,
    "p": "Kohgiluyeh va Bowyer Ahmad",
    "population": 0
  },
  {
    "id": "c_292",
    "label": "Sepidan",
    "lat": 30.2606,
    "lng": 51.9842,
    "p": "Fars",
    "population": 0
  },
  {
    "id": "c_293",
    "label": "Arsanjan",
    "lat": 29.9122,
    "lng": 53.3083,
    "p": "Fars",
    "population": 0
  },
  {
    "id": "c_294",
    "label": "Surak",
    "lat": 36.595,
    "lng": 53.2075,
    "p": "Mazandaran",
    "population": 0
  },
  {
    "id": "c_295",
    "label": "Sarab-e Dureh",
    "lat": 33.5628,
    "lng": 48.0222,
    "p": "Lorestan",
    "population": 0
  },
  {
    "id": "c_296",
    "label": "Joghtay",
    "lat": 36.635,
    "lng": 57.0717,
    "p": "Khorasan-e Razavi",
    "population": 0
  },
  {
    "id": "c_297",
    "label": "Fariman",
    "lat": 35.7069,
    "lng": 59.8501,
    "p": "Khorasan-e Razavi",
    "population": 0
  },
  {
    "id": "c_298",
    "label": "Bu’in Zahra",
    "lat": 35.7669,
    "lng": 50.0578,
    "p": "Qazvin",
    "population": 0
  },
  {
    "id": "c_299",
    "label": "Darab",
    "lat": 28.7519,
    "lng": 54.5444,
    "p": "Fars",
    "population": 0
  },
  {
    "id": "c_300",
    "label": "Farmahin",
    "lat": 34.5039,
    "lng": 49.6844,
    "p": "Markazi",
    "population": 0
  },
  {
    "id": "c_301",
    "label": "Ramshir",
    "lat": 30.8947,
    "lng": 49.4092,
    "p": "Khuzestan",
    "population": 0
  },
  {
    "id": "c_302",
    "label": "Pol-e Sefid",
    "lat": 36.1178,
    "lng": 53.0553,
    "p": "Mazandaran",
    "population": 0
  },
  {
    "id": "c_303",
    "label": "Heris",
    "lat": 38.2481,
    "lng": 47.1167,
    "p": "Azarbayjan-e Sharqi",
    "population": 0
  },
  {
    "id": "c_304",
    "label": "Mahallat",
    "lat": 33.9054,
    "lng": 50.4572,
    "p": "Markazi",
    "population": 0
  },
  {
    "id": "c_305",
    "label": "Gavbandi",
    "lat": 27.2083,
    "lng": 53.0361,
    "p": "Hormozgan",
    "population": 0
  },
  {
    "id": "c_306",
    "label": "Bozghan",
    "lat": 36.2858,
    "lng": 58.5861,
    "p": "Khorasan-e Razavi",
    "population": 0
  },
  {
    "id": "c_307",
    "label": "Likak",
    "lat": 30.895,
    "lng": 50.0931,
    "p": "Kohgiluyeh va Bowyer Ahmad",
    "population": 0
  },
  {
    "id": "c_308",
    "label": "Gilan-e Gharb",
    "lat": 34.1422,
    "lng": 45.9203,
    "p": "Kermanshah",
    "population": 0
  },
  {
    "id": "c_309",
    "label": "Lali",
    "lat": 32.3298,
    "lng": 49.0932,
    "p": "Khuzestan",
    "population": 0
  },
  {
    "id": "c_310",
    "label": "Maku",
    "lat": 39.2951,
    "lng": 44.4982,
    "p": "Azarbayjan-e Gharbi",
    "population": 0
  },
  {
    "id": "c_311",
    "label": "Sarvestan",
    "lat": 29.2733,
    "lng": 53.2203,
    "p": "Fars",
    "population": 0
  },
  {
    "id": "c_312",
    "label": "Charam",
    "lat": 30.746,
    "lng": 50.746,
    "p": "Kohgiluyeh va Bowyer Ahmad",
    "population": 0
  },
  {
    "id": "c_313",
    "label": "Dowlatabad",
    "lat": 35.2822,
    "lng": 59.5197,
    "p": "Khorasan-e Razavi",
    "population": 0
  },
  {
    "id": "c_314",
    "label": "Hashtrud",
    "lat": 37.4778,
    "lng": 47.0508,
    "p": "Azarbayjan-e Sharqi",
    "population": 0
  },
  {
    "id": "c_315",
    "label": "Deyr",
    "lat": 27.8397,
    "lng": 51.9378,
    "p": "Bushehr",
    "population": 0
  },
  {
    "id": "c_316",
    "label": "Seyah Cheshmeh",
    "lat": 39.0728,
    "lng": 44.3869,
    "p": "Azarbayjan-e Gharbi",
    "population": 0
  },
  {
    "id": "c_317",
    "label": "Delijan",
    "lat": 33.9903,
    "lng": 50.6836,
    "p": "Markazi",
    "population": 0
  },
  {
    "id": "c_318",
    "label": "Tazehabad",
    "lat": 34.7387,
    "lng": 46.1496,
    "p": "Kermanshah",
    "population": 0
  },
  {
    "id": "c_319",
    "label": "Khomarlu",
    "lat": 39.1489,
    "lng": 47.0347,
    "p": "Azarbayjan-e Sharqi",
    "population": 0
  },
  {
    "id": "c_320",
    "label": "Ardal",
    "lat": 31.9961,
    "lng": 50.6564,
    "p": "Chahar Mahal va Bakhtiari",
    "population": 0
  },
  {
    "id": "c_321",
    "label": "abbar",
    "lat": 36.9263,
    "lng": 48.9583,
    "p": "Zanjan",
    "population": 0
  },
  {
    "id": "c_322",
    "label": "Qal‘eh-ye Khvajeh",
    "lat": 32.2064,
    "lng": 49.4436,
    "p": "Khuzestan",
    "population": 0
  },
  {
    "id": "c_323",
    "label": "Rabor",
    "lat": 29.2911,
    "lng": 56.9131,
    "p": "Kerman",
    "population": 0
  },
  {
    "id": "c_324",
    "label": "Lamerd",
    "lat": 27.3339,
    "lng": 53.1789,
    "p": "Fars",
    "population": 0
  },
  {
    "id": "c_325",
    "label": "Zarrinabad",
    "lat": 36.425,
    "lng": 48.2819,
    "p": "Zanjan",
    "population": 0
  },
  {
    "id": "c_326",
    "label": "Divandarreh",
    "lat": 35.9139,
    "lng": 47.0239,
    "p": "Kordestan",
    "population": 0
  },
  {
    "id": "c_327",
    "label": "safashahr",
    "lat": 30.6131,
    "lng": 53.1954,
    "p": "Fars",
    "population": 0
  },
  {
    "id": "c_328",
    "label": "Sirik",
    "lat": 26.5161,
    "lng": 57.1019,
    "p": "Hormozgan",
    "population": 0
  },
  {
    "id": "c_329",
    "label": "Kerend-e Gharb",
    "lat": 34.2842,
    "lng": 46.2422,
    "p": "Kermanshah",
    "population": 0
  },
  {
    "id": "c_330",
    "label": "Nir",
    "lat": 38.0346,
    "lng": 47.9986,
    "p": "Ardabil",
    "population": 0
  },
  {
    "id": "c_331",
    "label": "Maraveh Tappeh",
    "lat": 37.9,
    "lng": 55.95,
    "p": "Golestan",
    "population": 0
  },
  {
    "id": "c_332",
    "label": "Bandar-e Lengeh",
    "lat": 26.5578,
    "lng": 54.8806,
    "p": "Hormozgan",
    "population": 0
  },
  {
    "id": "c_333",
    "label": "Basht",
    "lat": 30.3603,
    "lng": 51.1617,
    "p": "Kohgiluyeh va Bowyer Ahmad",
    "population": 0
  },
  {
    "id": "c_334",
    "label": "Eslamabad",
    "lat": 28.0261,
    "lng": 58,
    "p": "Kerman",
    "population": 0
  },
  {
    "id": "c_335",
    "label": "abdanan",
    "lat": 32.9926,
    "lng": 47.4198,
    "p": "ilam",
    "population": 0
  },
  {
    "id": "c_336",
    "label": "Poldokhtar",
    "lat": 33.1536,
    "lng": 47.7136,
    "p": "Lorestan",
    "population": 0
  },
  {
    "id": "c_337",
    "label": "Bandar-e Deylam",
    "lat": 30.0542,
    "lng": 50.1589,
    "p": "Bushehr",
    "population": 0
  },
  {
    "id": "c_338",
    "label": "Dargaz",
    "lat": 37.3333,
    "lng": 59.0833,
    "p": "Khorasan-e Razavi",
    "population": 0
  },
  {
    "id": "c_339",
    "label": "Givi",
    "lat": 37.6858,
    "lng": 48.342,
    "p": "Ardabil",
    "population": 0
  },
  {
    "id": "c_340",
    "label": "Sa‘adat Shahr",
    "lat": 30.0786,
    "lng": 53.1397,
    "p": "Fars",
    "population": 0
  },
  {
    "id": "c_341",
    "label": "Qir",
    "lat": 28.4825,
    "lng": 53.0346,
    "p": "Fars",
    "population": 0
  },
  {
    "id": "c_342",
    "label": "Varazqan",
    "lat": 38.6744,
    "lng": 46.1131,
    "p": "Azarbayjan-e Sharqi",
    "population": 0
  },
  {
    "id": "c_343",
    "label": "Fahraj",
    "lat": 28.9503,
    "lng": 58.885,
    "p": "Kerman",
    "population": 0
  },
  {
    "id": "c_344",
    "label": "ashkhaneh",
    "lat": 37.5615,
    "lng": 56.9212,
    "p": "Khorasan-e Shomali",
    "population": 0
  },
  {
    "id": "c_345",
    "label": "Soltanabad",
    "lat": 36.4035,
    "lng": 58.0389,
    "p": "Khorasan-e Razavi",
    "population": 0
  },
  {
    "id": "c_346",
    "label": "abadeh",
    "lat": 31.1608,
    "lng": 52.6506,
    "p": "Fars",
    "population": 0
  },
  {
    "id": "c_347",
    "label": "Sarakhs",
    "lat": 36.5447,
    "lng": 61.1575,
    "p": "Khorasan-e Razavi",
    "population": 0
  },
  {
    "id": "c_348",
    "label": "Bastak",
    "lat": 27.1992,
    "lng": 54.3667,
    "p": "Hormozgan",
    "population": 0
  },
  {
    "id": "c_349",
    "label": "Hajjiabad",
    "lat": 28.3574,
    "lng": 54.4233,
    "p": "Fars",
    "population": 0
  },
  {
    "id": "c_350",
    "label": "Haftkel",
    "lat": 31.4422,
    "lng": 49.5317,
    "p": "Khuzestan",
    "population": 0
  },
  {
    "id": "c_351",
    "label": "Khowrmuj",
    "lat": 28.6542,
    "lng": 51.38,
    "p": "Bushehr",
    "population": 0
  },
  {
    "id": "c_352",
    "label": "Firuzkuh",
    "lat": 35.7567,
    "lng": 52.7706,
    "p": "Tehran",
    "population": 0
  },
  {
    "id": "c_353",
    "label": "Shahr-e Qadim-e Lar",
    "lat": 27.6834,
    "lng": 54.3417,
    "p": "Fars",
    "population": 0
  },
  {
    "id": "c_354",
    "label": "Nurabad",
    "lat": 30.1141,
    "lng": 51.5217,
    "p": "Fars",
    "population": 0
  },
  {
    "id": "c_355",
    "label": "Rasak",
    "lat": 26.2368,
    "lng": 61.399,
    "p": "Sistan va Baluchestan",
    "population": 0
  },
  {
    "id": "c_356",
    "label": "Faryab",
    "lat": 28.0987,
    "lng": 57.2318,
    "p": "Kerman",
    "population": 0
  },
  {
    "id": "c_357",
    "label": "Hoveyzeh",
    "lat": 31.4619,
    "lng": 48.0739,
    "p": "Khuzestan",
    "population": 0
  },
  {
    "id": "c_358",
    "label": "‘Anbarabad",
    "lat": 28.4758,
    "lng": 57.8481,
    "p": "Kerman",
    "population": 0
  },
  {
    "id": "c_359",
    "label": "Roshtkhvar",
    "lat": 34.9667,
    "lng": 59.6167,
    "p": "Khorasan-e Razavi",
    "population": 0
  },
  {
    "id": "c_360",
    "label": "Anar",
    "lat": 30.8733,
    "lng": 55.2706,
    "p": "Kerman",
    "population": 0
  },
  {
    "id": "c_361",
    "label": "Manujan",
    "lat": 27.4064,
    "lng": 57.5014,
    "p": "Kerman",
    "population": 0
  },
  {
    "id": "c_362",
    "label": "Bandar-e Khamir",
    "lat": 26.9522,
    "lng": 55.585,
    "p": "Hormozgan",
    "population": 0
  },
  {
    "id": "c_363",
    "label": "Arakvaz-e Malekshahi",
    "lat": 33.3828,
    "lng": 46.5983,
    "p": "ilam",
    "population": 0
  },
  {
    "id": "c_364",
    "label": "Arzu’iyeh",
    "lat": 28.4414,
    "lng": 56.3728,
    "p": "Kerman",
    "population": 0
  },
  {
    "id": "c_365",
    "label": "Mamuniyeh",
    "lat": 35.3056,
    "lng": 50.4992,
    "p": "Markazi",
    "population": 0
  },
  {
    "id": "c_366",
    "label": "Mahneshan",
    "lat": 36.7442,
    "lng": 47.6725,
    "p": "Zanjan",
    "population": 0
  },
  {
    "id": "c_367",
    "label": "ashtian",
    "lat": 34.5219,
    "lng": 50.0058,
    "p": "Markazi",
    "population": 0
  },
  {
    "id": "c_368",
    "label": "Garmeh",
    "lat": 36.9833,
    "lng": 56.2833,
    "p": "Khorasan-e Shomali",
    "population": 0
  },
  {
    "id": "c_369",
    "label": "Eqlid",
    "lat": 30.8881,
    "lng": 52.685,
    "p": "Fars",
    "population": 0
  },
  {
    "id": "c_370",
    "label": "Nikshahr",
    "lat": 26.2258,
    "lng": 60.2142,
    "p": "Sistan va Baluchestan",
    "population": 0
  },
  {
    "id": "c_371",
    "label": "Neyriz",
    "lat": 29.1986,
    "lng": 54.3278,
    "p": "Fars",
    "population": 0
  },
  {
    "id": "c_372",
    "label": "Gonabad",
    "lat": 34.3528,
    "lng": 58.6836,
    "p": "Khorasan-e Razavi",
    "population": 0
  },
  {
    "id": "c_373",
    "label": "Kalat-e Naderi",
    "lat": 36.9953,
    "lng": 59.7647,
    "p": "Khorasan-e Razavi",
    "population": 0
  },
  {
    "id": "c_374",
    "label": "Surian",
    "lat": 30.4551,
    "lng": 53.651,
    "p": "Fars",
    "population": 0
  },
  {
    "id": "c_375",
    "label": "Zaboli",
    "lat": 27.131,
    "lng": 61.6744,
    "p": "Sistan va Baluchestan",
    "population": 0
  },
  {
    "id": "c_376",
    "label": "Qarah aghaj",
    "lat": 37.2187,
    "lng": 47.2167,
    "p": "Azarbayjan-e Sharqi",
    "population": 0
  },
  {
    "id": "c_377",
    "label": "Suran",
    "lat": 27.2856,
    "lng": 61.9964,
    "p": "Sistan va Baluchestan",
    "population": 0
  },
  {
    "id": "c_378",
    "label": "Konarak",
    "lat": 25.3603,
    "lng": 60.3994,
    "p": "Sistan va Baluchestan",
    "population": 0
  },
  {
    "id": "c_379",
    "label": "Dehloran",
    "lat": 32.6942,
    "lng": 47.2678,
    "p": "ilam",
    "population": 0
  },
  {
    "id": "c_380",
    "label": "Bardsir",
    "lat": 29.9275,
    "lng": 56.5722,
    "p": "Kerman",
    "population": 0
  },
  {
    "id": "c_381",
    "label": "Qa’en",
    "lat": 33.7267,
    "lng": 59.1844,
    "p": "Khorasan-e Jonubi",
    "population": 0
  },
  {
    "id": "c_382",
    "label": "Hajjiabad",
    "lat": 33.605,
    "lng": 59.9934,
    "p": "Khorasan-e Jonubi",
    "population": 0
  },
  {
    "id": "c_383",
    "label": "Mohammadabad",
    "lat": 28.6689,
    "lng": 59.0733,
    "p": "Kerman",
    "population": 0
  },
  {
    "id": "c_384",
    "label": "Asadiyeh",
    "lat": 32.9428,
    "lng": 59.72,
    "p": "Khorasan-e Jonubi",
    "population": 0
  },
  {
    "id": "c_385",
    "label": "Khonj",
    "lat": 27.8833,
    "lng": 53.4333,
    "p": "Fars",
    "population": 0
  },
  {
    "id": "c_386",
    "label": "iranshahr",
    "lat": 27.2024,
    "lng": 60.6848,
    "p": "Sistan va Baluchestan",
    "population": 0
  },
  {
    "id": "c_387",
    "label": "Hendijan",
    "lat": 30.2364,
    "lng": 49.7119,
    "p": "Khuzestan",
    "population": 0
  },
  {
    "id": "c_388",
    "label": "Abarkuh",
    "lat": 31.1289,
    "lng": 53.2822,
    "p": "Yazd",
    "population": 0
  },
  {
    "id": "c_389",
    "label": "Tafresh",
    "lat": 34.6919,
    "lng": 50.0128,
    "p": "Markazi",
    "population": 0
  },
  {
    "id": "c_390",
    "label": "Farashband",
    "lat": 28.8714,
    "lng": 52.0917,
    "p": "Fars",
    "population": 0
  },
  {
    "id": "c_391",
    "label": "Qal‘eh Ganj",
    "lat": 27.5236,
    "lng": 57.8811,
    "p": "Kerman",
    "population": 0
  },
  {
    "id": "c_392",
    "label": "Khash",
    "lat": 28.2211,
    "lng": 61.2158,
    "p": "Sistan va Baluchestan",
    "population": 0
  },
  {
    "id": "c_393",
    "label": "Jajarm",
    "lat": 36.9501,
    "lng": 56.38,
    "p": "Khorasan-e Shomali",
    "population": 0
  },
  {
    "id": "c_394",
    "label": "Ferdows",
    "lat": 34.0186,
    "lng": 58.1722,
    "p": "Khorasan-e Jonubi",
    "population": 0
  },
  {
    "id": "c_395",
    "label": "Hajjiabad",
    "lat": 28.3091,
    "lng": 55.9017,
    "p": "Hormozgan",
    "population": 0
  },
  {
    "id": "c_396",
    "label": "Bajestan",
    "lat": 34.5164,
    "lng": 58.1844,
    "p": "Khorasan-e Razavi",
    "population": 0
  },
  {
    "id": "c_397",
    "label": "Mehriz",
    "lat": 31.5853,
    "lng": 54.4415,
    "p": "Yazd",
    "population": 0
  },
  {
    "id": "c_398",
    "label": "Mehran",
    "lat": 33.1222,
    "lng": 46.1647,
    "p": "ilam",
    "population": 0
  },
  {
    "id": "c_399",
    "label": "Shahr-e Babak",
    "lat": 30.1164,
    "lng": 55.1186,
    "p": "Kerman",
    "population": 0
  },
  {
    "id": "c_400",
    "label": "Dalgan",
    "lat": 27.4753,
    "lng": 59.4717,
    "p": "Sistan va Baluchestan",
    "population": 0
  },
  {
    "id": "c_401",
    "label": "Kuhbanan",
    "lat": 31.4103,
    "lng": 56.2825,
    "p": "Kerman",
    "population": 0
  },
  {
    "id": "c_402",
    "label": "Sardasht",
    "lat": 26.4558,
    "lng": 57.9028,
    "p": "Hormozgan",
    "population": 0
  },
  {
    "id": "c_403",
    "label": "Sarbisheh",
    "lat": 32.5756,
    "lng": 59.7983,
    "p": "Khorasan-e Jonubi",
    "population": 0
  },
  {
    "id": "c_404",
    "label": "Mayamey",
    "lat": 36.4109,
    "lng": 55.6502,
    "p": "Semnan",
    "population": 0
  },
  {
    "id": "c_405",
    "label": "Shahr-e Herat",
    "lat": 30.0542,
    "lng": 54.3731,
    "p": "Yazd",
    "population": 0
  },
  {
    "id": "c_406",
    "label": "Boshruyeh",
    "lat": 33.8683,
    "lng": 57.4289,
    "p": "Khorasan-e Jonubi",
    "population": 0
  },
  {
    "id": "c_407",
    "label": "Bafq",
    "lat": 31.6053,
    "lng": 55.4028,
    "p": "Yazd",
    "population": 0
  },
  {
    "id": "c_408",
    "label": "Jask",
    "lat": 25.6439,
    "lng": 57.7744,
    "p": "Hormozgan",
    "population": 0
  },
  {
    "id": "c_409",
    "label": "Ardakan",
    "lat": 32.3094,
    "lng": 54.0186,
    "p": "Yazd",
    "population": 0
  },
  {
    "id": "c_410",
    "label": "Sarayan",
    "lat": 33.8603,
    "lng": 58.5217,
    "p": "Khorasan-e Jonubi",
    "population": 0
  },
  {
    "id": "c_411",
    "label": "Ravar",
    "lat": 31.2656,
    "lng": 56.8056,
    "p": "Kerman",
    "population": 0
  },
  {
    "id": "c_412",
    "label": "Nehbandan",
    "lat": 31.5419,
    "lng": 60.0364,
    "p": "Khorasan-e Jonubi",
    "population": 0
  },
  {
    "id": "c_413",
    "label": "Tabas",
    "lat": 33.5959,
    "lng": 56.9244,
    "p": "Khorasan-e Jonubi",
    "population": 0
  },
  {
    "id": "c_414",
    "label": "Na’in",
    "lat": 32.8601,
    "lng": 53.0875,
    "p": "Esfahan",
    "population": 0
  },
  {
    "id": "c_415",
    "label": "Fuladshahr",
    "lat": null,
    "lng": null,
    "p": "Esfahan",
    "population": 0
  },
  {
    "id": "c_416",
    "label": "Talesh",
    "lat": null,
    "lng": null,
    "p": "Gilan",
    "population": 0
  },
  {
    "id": "c_417",
    "label": "Parand",
    "lat": null,
    "lng": null,
    "p": "Tehran",
    "population": 0
  }
]
